[
    {
        "type": "node",
        "id": "11203078941",
        "lat": "21.0038247",
        "lon": "105.6342860",
        "tags": {
            "branch": "Quốc Oai",
            "brand": "VinFast",
            "brand:wikidata": "Q56660561",
            "name": "VinFast",
            "shop": "car"
        }
    },
    {
        "type": "node",
        "id": "442977400",
        "lat": "21.0115207",
        "lon": "105.8494114",
        "tags": {
            "branch": "Bà Triệu",
            "brand": "WinMart",
            "brand:wikidata": "Q60245505",
            "brand:wikipedia": "vi:VinMart",
            "level": "3",
            "name": "WinMart",
            "opening_hours": "Mo-Su 09:00-21:00",
            "shop": "supermarket"
        }
    },
    {
        "type": "node",
        "id": "446043519",
        "lat": "21.0051499",
        "lon": "105.8493886",
        "tags": {
            "name": "Cửa Hàng Balô MITI",
            "shop": "yes"
        }
    },
    {
        "type": "node",
        "id": "446044146",
        "lat": "21.0076051",
        "lon": "105.8512354",
        "tags": {
            "clothes": "wedding",
            "name": "Cửa Hàng Áo Cưới Quỳnh Anh",
            "note": "$$o c$$$$$i Qu$$$nh Anh, 40 B$$$ch Mai",
            "shop": "clothes"
        }
    },
    {
        "type": "node",
        "id": "1074742317",
        "lat": "21.0018770",
        "lon": "105.8508490",
        "tags": {
            "addr:country": "VN",
            "addr:housenumber": "307a",
            "addr:street": "Bạch mai",
            "name": "Cửa Hàng Đồ Cưới Muacuoi",
            "shop": "hairdresser",
            "website": "https://muacuoi.vn/"
        }
    },
    {
        "type": "node",
        "id": "3294732598",
        "lat": "21.0110248",
        "lon": "105.8114064",
        "tags": {
            "addr:housenumber": "171",
            "addr:street": "Phõ Láng Hạ",
            "branch": "bicycle shop",
            "brand": "Giant",
            "brand:wikidata": "Q703557",
            "name": "Giant",
            "shop": "bicycle"
        }
    },
    {
        "type": "node",
        "id": "3327079260",
        "lat": "21.0078791",
        "lon": "105.8260383",
        "tags": {
            "addr:city": "Hà Nội",
            "addr:country": "VN",
            "addr:district": "Đống Đa",
            "addr:housenumber": "Số 111 Ngõ 231",
            "addr:province": "Hà Nội",
            "addr:street": "Phố Chùa Bộc",
            "addr:subdistrict": "Trung Liệt",
            "fixme": "Add closing time to opening_hours",
            "name": "Tink Shop",
            "opening_hours": "9:00",
            "phone": "01663746929",
            "shop": "clothes"
        }
    },
    {
        "type": "node",
        "id": "3374921945",
        "lat": "21.0074886",
        "lon": "105.8123895",
        "tags": {
            "name": "Thành Đô Mart",
            "shop": "variety_store"
        }
    },
    {
        "type": "node",
        "id": "3733115426",
        "lat": "21.0154506",
        "lon": "105.8171293",
        "tags": {
            "addr:city": "Hà Nội",
            "addr:country": "VN",
            "addr:district": "Đống Đa",
            "addr:housenumber": "324",
            "addr:street": "Phố Thái Hà",
            "name": "Cửa Hàng Thời Trang Dan Gun",
            "shop": "clothes"
        }
    },
    {
        "type": "node",
        "id": "3890689189",
        "lat": "21.0016576",
        "lon": "105.8449682",
        "tags": {
            "name": "Cửa Hàng Mắt Kính Nam Hải",
            "shop": "optician",
            "wheelchair": "no"
        }
    },
    {
        "type": "node",
        "id": "3937714032",
        "lat": "21.0084427",
        "lon": "105.8511563",
        "tags": {
            "addr:city": "Hà Nội",
            "addr:country": "VN",
            "addr:district": "Hai Bà Trưng",
            "addr:housenumber": "3",
            "addr:street": "Đường Đại Cồ Việt",
            "addr:subdistrict": "Cầu Dền",
            "name": "Pet Mart Đại Cồ Việt",
            "opening_hours": "09:00-22:00",
            "operator": "Hệ Thống Siêu Thị Thú Cưng Pet Mart",
            "phone": "04 7106 9906",
            "shop": "supermarket",
            "website": "https://www.petmart.vn/"
        }
    },
    {
        "type": "node",
        "id": "4134741789",
        "lat": "21.0132668",
        "lon": "105.8185196",
        "tags": {
            "addr:city": "Hà Nội",
            "addr:country": "VN",
            "addr:district": "Đống Đa",
            "addr:housenumber": "15",
            "addr:street": "Phố Yên Lãng",
            "addr:subdistrict": "Trung Liệt",
            "description": "sửa chữa, cung cấp linh kiện điện thoại di động. 0943456539",
            "name": "Tungmobile.com",
            "shop": "mobile_phone"
        }
    },
    {
        "type": "node",
        "id": "4142241091",
        "lat": "21.0140893",
        "lon": "105.8188524",
        "tags": {
            "name": "Cửa Hàng Ap24h",
            "shop": "computer"
        }
    },
    {
        "type": "node",
        "id": "4151616392",
        "lat": "21.0135779",
        "lon": "105.8526804",
        "tags": {
            "name": "Second Hand Market",
            "shop": "supermarket"
        }
    },
    {
        "type": "node",
        "id": "4171931890",
        "lat": "21.0022833",
        "lon": "105.8160462",
        "tags": {
            "addr:city": "Hà Nội",
            "addr:country": "VN",
            "addr:district": "Thanh Xuân",
            "addr:housenumber": "72A",
            "addr:street": "Đường Nguyễn Trãi",
            "addr:subdistrict": "Thượng Đình",
            "air_conditioning": "yes",
            "brand": "Vincom",
            "contact:facebook": "https://www.facebook.com/vmmroyalcity",
            "currency:VND": "yes",
            "email": "v.cskh-vmmroyalcity@vincom.com.vn",
            "level": "0;-1;-2",
            "name": "Vincom Mega Mall Royal City",
            "opening_hours": "Mo-Su 10:00-21:30",
            "phone": "+84979901101",
            "shop": "mall",
            "toilets": "yes",
            "website": "https://vincom.com.vn/vincom-mega-mall-royal-city"
        }
    },
    {
        "type": "node",
        "id": "4228029094",
        "lat": "21.0057536",
        "lon": "105.8233332",
        "tags": {
            "internet_access": "wlan",
            "name": "Cửa Hàng Đồ Uống Luogo",
            "opening_hours": "Mo-Su 10:00-22:00",
            "shop": "beverages"
        }
    },
    {
        "type": "node",
        "id": "4273485790",
        "lat": "21.0132812",
        "lon": "105.8331542",
        "tags": {
            "addr:country": "VN",
            "addr:housenumber": "113",
            "addr:street": "Xã Đàn II",
            "name": "Du Lịch Dream Travel",
            "opening_hours": "Mo-Su 08:00-18:00",
            "shop": "travel_agency"
        }
    },
    {
        "type": "node",
        "id": "4275828489",
        "lat": "21.0115143",
        "lon": "105.8493228",
        "tags": {
            "brand": "Crocs",
            "brand:wikidata": "Q926699",
            "name": "Crocs",
            "shop": "shoes"
        }
    },
    {
        "type": "node",
        "id": "4373141128",
        "lat": "21.0020850",
        "lon": "105.8496300",
        "tags": {
            "addr:city": "Ha Noi",
            "addr:country": "VN",
            "addr:district": "Hai Bà Trưng",
            "addr:housenumber": "106E1",
            "addr:postcode": "10000",
            "addr:street": "Tạ Quang Bửu",
            "addr:subdistrict": "Bách Khoa",
            "description": "Trang trí nhà của, đồ gia dụng thông minh, đẹp lạ.",
            "name": "Cửa Hàng Nội Thất Lovehome Shop",
            "shop": "furniture"
        }
    },
    {
        "type": "node",
        "id": "4378846896",
        "lat": "21.0149278",
        "lon": "105.8341085",
        "tags": {
            "addr:country": "VN",
            "addr:housenumber": "150",
            "addr:postcode": "100000",
            "addr:street": "Đê La Thành",
            "email": "www.thitlonden.vn@gmail.com",
            "internet_access": "wlan",
            "name": "Thịt lợn đen Song Thắng",
            "name:vi": "Thịt lợn đen Song Thắng",
            "opening_hours": "Mo-Su 08:30-17:30",
            "phone": "0466874044",
            "shop": "butcher",
            "website": "http://www.thitlonden.vn"
        }
    },
    {
        "type": "node",
        "id": "4486827793",
        "lat": "21.0131171",
        "lon": "105.8511784",
        "tags": {
            "name": "original Apple",
            "name:vi": "original Apple",
            "shop": "mobile_phone"
        }
    },
    {
        "type": "node",
        "id": "4501832689",
        "lat": "21.0027959",
        "lon": "105.8020349",
        "tags": {
            "name:vi": "Trung tâm thẩm mỹ viện May beauty academy",
            "shop": "beauty"
        }
    },
    {
        "type": "node",
        "id": "4507303602",
        "lat": "21.0132459",
        "lon": "105.8491198",
        "tags": {
            "addr:country": "VN",
            "addr:housenumber": "So 270",
            "addr:street": "Ba Trieu",
            "name:en": "XGame",
            "shop": "computer"
        }
    },
    {
        "type": "node",
        "id": "4524182892",
        "lat": "21.0152969",
        "lon": "105.8475340",
        "tags": {
            "addr:country": "VN",
            "addr:street": "Tuệ Tĩnh",
            "name:en": "Che tap cam",
            "shop": "beverages"
        }
    },
    {
        "type": "node",
        "id": "4554110090",
        "lat": "21.0155361",
        "lon": "105.7781996",
        "tags": {
            "brand": "Big C",
            "brand:wikidata": "Q858665",
            "brand:wikipedia": "en:Big C",
            "internet_access": "wlan",
            "level": "-1",
            "name": "Big C",
            "opening_hours": "Mo-Fr 10:00-22:00; Sa-Su 9:30-22:00",
            "phone": "04 3787 5500",
            "shop": "supermarket"
        }
    },
    {
        "type": "node",
        "id": "4567092789",
        "lat": "21.0084633",
        "lon": "105.8399650",
        "tags": {
            "name:en": "Cheap clothes shops",
            "shop": "clothes"
        }
    },
    {
        "type": "node",
        "id": "4568427790",
        "lat": "21.0141804",
        "lon": "105.8039346",
        "tags": {
            "addr:city": "Hà Nội",
            "addr:country": "VN",
            "addr:district": "Cầu Giấy",
            "addr:housenumber": "21A-23",
            "addr:street": "Trần Duy Hưng",
            "addr:subdistrict": "Trung Hòa",
            "description": "Đèn trang trí Macani - Phong cách Ý.",
            "name": "Đèn Trang Trí Macani",
            "shop": "furniture"
        }
    },
    {
        "type": "node",
        "id": "4631399453",
        "lat": "21.0075379",
        "lon": "105.8018484",
        "tags": {
            "brand": "WinMart+",
            "brand:wikidata": "Q113236478",
            "brand:wikipedia": "vi:WinMart",
            "name": "WinMart+",
            "shop": "convenience"
        }
    },
    {
        "type": "node",
        "id": "4655448292",
        "lat": "21.0134789",
        "lon": "105.8518461",
        "tags": {
            "addr:city": "Hà Nội",
            "addr:country": "VN",
            "name": "helmets",
            "name:vi": "helmets",
            "shop": "yes"
        }
    },
    {
        "type": "node",
        "id": "4705422289",
        "lat": "21.0072702",
        "lon": "105.8323154",
        "tags": {
            "name:en": "Fugashin Shoemaker",
            "shop": "shoes"
        }
    },
    {
        "type": "node",
        "id": "4727204389",
        "lat": "21.0108623",
        "lon": "105.8517435",
        "tags": {
            "addr:housenumber": "314",
            "addr:street": "Phố Huế",
            "name": "Cửa Hàng Mỹ Phẩm Dr.Lê",
            "shop": "beauty"
        }
    },
    {
        "type": "node",
        "id": "4737415321",
        "lat": "20.9983427",
        "lon": "105.8186263",
        "tags": {
            "addr:housenumber": "76",
            "addr:street": "Khương Trung",
            "name": "Cửa Hàng Bibi Mart",
            "shop": "convenience"
        }
    },
    {
        "type": "node",
        "id": "4739182233",
        "lat": "20.9987259",
        "lon": "105.8201203",
        "tags": {
            "addr:housenumber": "102",
            "addr:street": "Phố Tô Vĩnh Diện",
            "name": "zoo mart",
            "shop": "convenience"
        }
    },
    {
        "type": "node",
        "id": "4741290031",
        "lat": "21.0008166",
        "lon": "105.8496459",
        "tags": {
            "addr:housenumber": "110 K2 ngõ 48",
            "addr:street": "Tạ Quang Bửu",
            "name": "Tạp hoá @",
            "shop": "department_store"
        }
    },
    {
        "type": "node",
        "id": "4741290345",
        "lat": "21.0011518",
        "lon": "105.8457693",
        "tags": {
            "addr:housenumber": "27",
            "addr:street": "Nguyễn Hiền",
            "name": "Thành Loan",
            "shop": "department_store"
        }
    },
    {
        "type": "node",
        "id": "4741290347",
        "lat": "21.0040643",
        "lon": "105.8465822",
        "tags": {
            "addr:housenumber": "44/30",
            "addr:street": "Tạ Quang Bửu",
            "name": "Cửa Hàng Tự Chọn GT Mart",
            "shop": "supermarket"
        }
    },
    {
        "type": "node",
        "id": "4741290353",
        "lat": "21.0030844",
        "lon": "105.8460772",
        "tags": {
            "addr:housenumber": "37",
            "addr:street": "Ngõ 40 Tạ Quang Bửu",
            "name": "Tuấn anh",
            "shop": "convenience"
        }
    },
    {
        "type": "node",
        "id": "4741290526",
        "lat": "21.0087929",
        "lon": "105.8522023",
        "tags": {
            "addr:housenumber": "552",
            "addr:street": "Đường Trần Khát Chân",
            "name": "Tạp hoá",
            "shop": "convenience"
        }
    },
    {
        "type": "node",
        "id": "4744445629",
        "lat": "20.9991222",
        "lon": "105.8069060",
        "tags": {
            "addr:housenumber": "60",
            "addr:street": "Nguyễn Huy Tưởng",
            "name": "phú gia mini mart",
            "shop": "convenience"
        }
    },
    {
        "type": "node",
        "id": "4744474221",
        "lat": "20.9982567",
        "lon": "105.8055590",
        "tags": {
            "addr:housenumber": "106",
            "addr:street": "Nguyễn Huy Tưởng",
            "name": "Tạp Hoá 106",
            "shop": "convenience"
        }
    },
    {
        "type": "node",
        "id": "4746384124",
        "lat": "21.0133515",
        "lon": "105.8512944",
        "tags": {
            "addr:housenumber": "02",
            "addr:street": "Phố Tô Hiến Thành",
            "name": "nhật toàn",
            "shop": "department_store"
        }
    },
    {
        "type": "node",
        "id": "4746447821",
        "lat": "21.0107749",
        "lon": "105.8517613",
        "tags": {
            "addr:housenumber": "314",
            "addr:street": "Phố Huế",
            "name": "siêu thị á âu",
            "shop": "department_store"
        }
    },
    {
        "type": "node",
        "id": "4748547425",
        "lat": "21.0014921",
        "lon": "105.8464378",
        "tags": {
            "addr:housenumber": "4",
            "addr:street": "Ngõ 37 Lê Thanh Nghị",
            "name": "tạp hoá",
            "shop": "convenience"
        }
    },
    {
        "type": "node",
        "id": "4749011865",
        "lat": "21.0082427",
        "lon": "105.8458297",
        "tags": {
            "shop": "ticket"
        }
    },
    {
        "type": "node",
        "id": "4749012033",
        "lat": "21.0135916",
        "lon": "105.8415467",
        "tags": {
            "shop": "ticket"
        }
    },
    {
        "type": "node",
        "id": "4750152424",
        "lat": "20.9986173",
        "lon": "105.8525636",
        "tags": {
            "addr:housenumber": "118",
            "addr:street": "Hồng Mai",
            "name": "Siêu thị gia đình",
            "shop": "supermarket"
        }
    },
    {
        "type": "node",
        "id": "4750159121",
        "lat": "21.0019575",
        "lon": "105.8533704",
        "tags": {
            "addr:housenumber": "115/295",
            "addr:street": "Bạch Mai",
            "name": "Shop tự chọn",
            "shop": "convenience"
        }
    },
    {
        "type": "node",
        "id": "4769188323",
        "lat": "21.0058464",
        "lon": "105.8329943",
        "tags": {
            "addr:street": "Phố Đông Tác",
            "name": "Sửa xe máy",
            "shop": "tyres"
        }
    },
    {
        "type": "node",
        "id": "4771210125",
        "lat": "20.9989713",
        "lon": "105.8533562",
        "tags": {
            "addr:housenumber": "151",
            "addr:street": "Hồng Mai",
            "name": "Tạp hoá",
            "shop": "convenience"
        }
    },
    {
        "type": "node",
        "id": "4772082122",
        "lat": "21.0032412",
        "lon": "105.8537316",
        "tags": {
            "addr:housenumber": "148",
            "addr:street": "Ngõ Quỳnh",
            "name": "tạp hoá",
            "shop": "convenience"
        }
    },
    {
        "type": "node",
        "id": "4772277524",
        "lat": "21.0033242",
        "lon": "105.8527533",
        "tags": {
            "addr:housenumber": "đối diện ngõ 29",
            "addr:street": "Trại Găng",
            "name": "Tạp hoá",
            "shop": "convenience"
        }
    },
    {
        "type": "node",
        "id": "4774073422",
        "lat": "21.0152876",
        "lon": "105.8481995",
        "tags": {
            "addr:housenumber": "71",
            "addr:street": "Tuệ Tĩnh",
            "name": "Siêu Thị Tiện Lợi Moon Mart",
            "shop": "convenience"
        }
    },
    {
        "type": "node",
        "id": "4774822127",
        "lat": "21.0010458",
        "lon": "105.8531991",
        "tags": {
            "addr:street": "Bùi Ngọc Dương",
            "name": "Nội thất T79",
            "shop": "furniture",
            "website": "https://noithatt79.com/"
        }
    },
    {
        "type": "node",
        "id": "4776306721",
        "lat": "20.9981294",
        "lon": "105.7994278",
        "tags": {
            "addr:housenumber": "38/20",
            "addr:street": "Ngụy Như Kon Tum",
            "name": "Siêu Thị An An",
            "shop": "convenience"
        }
    },
    {
        "type": "node",
        "id": "4780858723",
        "lat": "21.0088189",
        "lon": "105.8520410",
        "tags": {
            "addr:housenumber": "566",
            "addr:street": "Đường Trần Khát Chân",
            "name": "Mỹ Phẩm Trang Oanh",
            "shop": "yes"
        }
    },
    {
        "type": "node",
        "id": "4785823821",
        "lat": "21.0083072",
        "lon": "105.8467955",
        "tags": {
            "addr:housenumber": "96",
            "addr:street": "Đường Đại Cồ Việt",
            "name": "Tạp hoá",
            "shop": "convenience"
        }
    },
    {
        "type": "node",
        "id": "4785836731",
        "lat": "21.0098037",
        "lon": "105.8498330",
        "tags": {
            "addr:housenumber": "25",
            "addr:street": "Lê Đại Hành",
            "name": "Rượu bia, bánh kẹo",
            "shop": "convenience"
        }
    },
    {
        "type": "node",
        "id": "4785839934",
        "lat": "21.0123561",
        "lon": "105.8472348",
        "tags": {
            "addr:housenumber": "55",
            "addr:street": "Lê Đại Hành",
            "name": "Hiệu Sách Thuỷ",
            "shop": "books"
        }
    },
    {
        "type": "node",
        "id": "4789255122",
        "lat": "21.0011671",
        "lon": "105.8428070",
        "tags": {
            "addr:housenumber": "78 ngõ 121",
            "addr:street": "Lê Thanh Nghị",
            "name": "Tạp hoá",
            "shop": "convenience"
        }
    },
    {
        "type": "node",
        "id": "4851264122",
        "lat": "21.0138394",
        "lon": "105.8099627",
        "tags": {
            "addr:postcode": "100000",
            "addr:street": "8 Lane 25/7 - Vũ Ngọc Phan - Láng Hạ",
            "email": "booking@lafermeducolvert.com",
            "name": "VĂN PHÒNG | Vịt Cổ Xanh Resort Spa Việt-Pháp",
            "name:en": "La Ferme du Colvert R&S | HANOI OFFICE",
            "name:fr": "BUREAU RESERVATION | La Ferme du Colvert R&S",
            "opening_hours": "Mo-Sa 08:30-17:30",
            "phone": "+84 4 3776 4301",
            "shop": "travel_agency",
            "website": "http://lafermeducolvert.com"
        }
    },
    {
        "type": "node",
        "id": "4880374322",
        "lat": "21.0045927",
        "lon": "105.8314288",
        "tags": {
            "name": "Vintage Clothes Market",
            "name:vi": "Vintage Clothes Market",
            "shop": "clothes"
        }
    },
    {
        "type": "node",
        "id": "4913875432",
        "lat": "21.0068771",
        "lon": "105.8450627",
        "tags": {
            "name": "Cửa Hàng Linh Kiện 69",
            "shop": "fashion_accessories"
        }
    },
    {
        "type": "node",
        "id": "4969427521",
        "lat": "21.0040326",
        "lon": "105.8471332",
        "tags": {
            "addr:street": "Ngõ 40 Tạ Quang Bửu",
            "name": "Thành",
            "name:vi": "Thành",
            "shop": "department_store"
        }
    },
    {
        "type": "node",
        "id": "5174002622",
        "lat": "21.0027132",
        "lon": "105.7767677",
        "tags": {
            "name": "Vinh thành",
            "shop": "convenience"
        }
    },
    {
        "type": "node",
        "id": "5187795638",
        "lat": "21.0090586",
        "lon": "105.8228875",
        "tags": {
            "name:en": "KidsPlaza",
            "shop": "toys"
        }
    },
    {
        "type": "node",
        "id": "5187798845",
        "lat": "21.0108183",
        "lon": "105.8223595",
        "tags": {
            "name:en": "KidsPlaza",
            "shop": "toys"
        }
    },
    {
        "type": "node",
        "id": "5188065121",
        "lat": "21.0065773",
        "lon": "105.8218950",
        "tags": {
            "addr:housenumber": "20",
            "addr:street": "Phố Thái Thịnh",
            "name:en": "KidsPlaza",
            "shop": "toys"
        }
    },
    {
        "type": "node",
        "id": "5202188927",
        "lat": "21.0141487",
        "lon": "105.7664009",
        "tags": {
            "addr:street": "Làng Phú Đô",
            "name": "Cửa Hàng Phụ Kiện Điện Thoại Văn Cường",
            "opening_hours": "24/7",
            "shop": "mobile_phone"
        }
    },
    {
        "type": "node",
        "id": "5239514429",
        "lat": "21.0151861",
        "lon": "105.8338088",
        "tags": {
            "addr:housenumber": "03",
            "addr:street": "La Thành",
            "name:ru": "(ремонт мотоциклов)",
            "shop": "car_repair"
        }
    },
    {
        "type": "node",
        "id": "5243535521",
        "lat": "21.0051261",
        "lon": "105.8274330",
        "tags": {
            "addr:housenumber": "Ngõ 95",
            "addr:street": "Chùa Bộc",
            "name": "Mộc Nails",
            "name:en": "Mộc Nails",
            "opening_hours": "Mo-Su 09:00-21:00",
            "shop": "cosmetics"
        }
    },
    {
        "type": "node",
        "id": "5407355424",
        "lat": "21.0151950",
        "lon": "105.8516759",
        "tags": {
            "brand": "Tous Les Jours",
            "brand:wikidata": "Q3535609",
            "cuisine": "cake;coffee_shop",
            "name": "Tous Les Jours",
            "shop": "bakery"
        }
    },
    {
        "type": "node",
        "id": "5409252621",
        "lat": "21.0142797",
        "lon": "105.8511178",
        "tags": {
            "addr:housenumber": "73B",
            "addr:street": "Phố Mai Hắc Đế",
            "email": "fanfanvn@gmail.com",
            "internet_access": "wlan",
            "name": "Cửa Hàng Đồ Dã Ngoại Fan Fan",
            "name:en": "FANFAN Outdoor and Camping",
            "opening_hours": "Mo-Su 09:00-21:00",
            "phone": "+84466627744",
            "shop": "outdoor",
            "website": "https://fanfan.vn/"
        }
    },
    {
        "type": "node",
        "id": "5485647877",
        "lat": "21.0106075",
        "lon": "105.8239540",
        "tags": {
            "addr:city": "Hà Nội",
            "addr:district": "Đống Đa",
            "addr:housenumber": "Nhà A2 TT Thảm May ngõ 155",
            "addr:street": "Đặng Tiến Đông",
            "addr:subdistrict": "Trung Liệt",
            "name": "Shop Áo Phông Trắng Trơn Authentic",
            "name:vi": "#WhiteTshirt - Shop áo phông trắng trơn Authentic",
            "opening_hours": "Sa 09:00-17:00",
            "payment:cash": "yes",
            "shop": "clothes",
            "source": "grab_hanoi_2018_t2"
        }
    },
    {
        "type": "node",
        "id": "5485653889",
        "lat": "21.0155801",
        "lon": "105.8055264",
        "tags": {
            "addr:city": "Hà Nội",
            "addr:district": "Đống Đa",
            "addr:housenumber": "145",
            "addr:province": "Hà Nội",
            "addr:street": "Phố Nguyễn Chí Thanh",
            "addr:subdistrict": "Láng Hạ",
            "name": "Trà Tiên Hưởng",
            "opening_hours": "Mo-Su 08:00-22:00",
            "shop": "coffee",
            "source": "grab_hanoi_2018_t2"
        }
    },
    {
        "type": "node",
        "id": "5485698745",
        "lat": "21.0139905",
        "lon": "105.7981453",
        "tags": {
            "addr:city": "Hà Nội",
            "addr:district": "Cầu Giấy",
            "addr:housenumber": "91",
            "addr:province": "Hà Nội",
            "addr:street": "Trung Kính",
            "addr:subdistrict": "Trung Hòa",
            "branch": "Trung Kính",
            "brand": "Circle K",
            "brand:wikidata": "Q3268010",
            "name": "Circle K",
            "opening_hours": "24/7",
            "shop": "convenience",
            "source": "grab_hanoi_2018_t2"
        }
    },
    {
        "type": "node",
        "id": "5485705689",
        "lat": "21.0106611",
        "lon": "105.8377060",
        "tags": {
            "addr:city": "Hà Nội",
            "addr:district": "Hà Nội",
            "addr:housenumber": "162",
            "addr:province": "Hà Nội",
            "addr:street": "Phố Xã Đàn",
            "name": "FPT Shop",
            "opening_hours": "Mo-Su 09:00-22:00",
            "payment:cash": "yes",
            "payment:coins": "yes",
            "payment:mastercard": "yes",
            "payment:visa": "yes",
            "phone": "1800 6601",
            "shop": "mobile_phone",
            "source": "grab_hanoi_2018_t4"
        }
    },
    {
        "type": "node",
        "id": "5485779523",
        "lat": "21.0065345",
        "lon": "105.8273951",
        "tags": {
            "addr:city": "Hà Nội",
            "addr:district": "Đống Đa",
            "addr:housenumber": "42",
            "addr:postcode": "100000",
            "addr:province": "Hà Nội",
            "addr:street": "Ngách 8, Ngõ 95",
            "addr:subdistrict": "Trung Liệt",
            "name": "Laptop Thảo Linh - Chuyên Laptop Xách Tay Mỹ",
            "opening_hours": "09:00-21:00",
            "operator": "Thảo Linh",
            "shop": "computer",
            "source": "grab_hanoi_2018_t3"
        }
    },
    {
        "type": "node",
        "id": "5485816793",
        "lat": "21.0132390",
        "lon": "105.8229980",
        "tags": {
            "addr:housenumber": "12",
            "addr:street": "Đặng Tiến Đông",
            "name": "Siêu thị Minh Hoa",
            "shop": "supermarket",
            "source": "grab_hanoi_2018_t2"
        }
    },
    {
        "type": "node",
        "id": "5485838280",
        "lat": "21.0138711",
        "lon": "105.8185774",
        "tags": {
            "name": "Trần Anh",
            "shop": "computer",
            "source": "grab_hanoi_2018_t3"
        }
    },
    {
        "type": "node",
        "id": "5485847969",
        "lat": "21.0138610",
        "lon": "105.8190878",
        "tags": {
            "name": "FPT Shop",
            "shop": "mobile_phone",
            "source": "grab_hanoi_2018_t3"
        }
    },
    {
        "type": "node",
        "id": "5485871757",
        "lat": "21.0030493",
        "lon": "105.8214368",
        "tags": {
            "name": "Cửa Hàng Bánh Mì Anh Hòa",
            "shop": "bakery",
            "source": "grab_hanoi_2018_t3"
        }
    },
    {
        "type": "node",
        "id": "5529539122",
        "lat": "21.0101824",
        "lon": "105.8508611",
        "tags": {
            "addr:housenumber": "59",
            "addr:street": "Phố Mai Hắc Đế",
            "name": "vinmart",
            "shop": "department_store"
        }
    },
    {
        "type": "node",
        "id": "5530044723",
        "lat": "21.0141362",
        "lon": "105.8348616",
        "tags": {
            "addr:housenumber": "122",
            "addr:street": "La Thành",
            "brand": "WinMart+",
            "brand:wikidata": "Q113236478",
            "name": "WinMart+",
            "shop": "convenience"
        }
    },
    {
        "type": "node",
        "id": "5530045828",
        "lat": "21.0111839",
        "lon": "105.8376854",
        "tags": {
            "addr:street": "Kim Hoa",
            "name": "vinmart",
            "name:en": "vinmart166",
            "shop": "department_store"
        }
    },
    {
        "type": "node",
        "id": "5535024321",
        "lat": "20.9986262",
        "lon": "105.8524501",
        "tags": {
            "addr:housenumber": "69",
            "addr:street": "Hồng Mai",
            "name": "vinmart",
            "shop": "department_store"
        }
    },
    {
        "type": "node",
        "id": "5535070322",
        "lat": "21.0152909",
        "lon": "105.8526796",
        "tags": {
            "addr:housenumber": "17",
            "addr:street": "Hoà Mã",
            "name": "vinmart",
            "shop": "department_store"
        }
    },
    {
        "type": "node",
        "id": "5535117704",
        "lat": "21.0118508",
        "lon": "105.8540074",
        "tags": {
            "addr:housenumber": "Toà n3",
            "addr:street": "Nguyễn Công Trứ",
            "name": "vinmart",
            "shop": "department_store"
        }
    },
    {
        "type": "node",
        "id": "5563278621",
        "lat": "21.0149135",
        "lon": "105.8481730",
        "tags": {
            "addr:housenumber": "35B",
            "addr:street": "Nguyễn Bỉnh Khiêm",
            "brand": "VinMart",
            "brand:wikidata": "Q60245505",
            "brand:wikipedia": "vi:VinMart",
            "name": "VinMart",
            "shop": "supermarket"
        }
    },
    {
        "type": "node",
        "id": "5565545525",
        "lat": "21.0051231",
        "lon": "105.8017742",
        "tags": {
            "addr:housenumber": "Tầng 1 N6B",
            "addr:street": "Hoàng Đạo Thúy",
            "name": "TOMAT",
            "shop": "variety_store"
        }
    },
    {
        "type": "node",
        "id": "5572535721",
        "lat": "21.0084391",
        "lon": "105.8475208",
        "tags": {
            "addr:housenumber": "66",
            "addr:street": "Đường Đại Cồ Việt",
            "brand": "WinMart+",
            "brand:wikidata": "Q113236478",
            "brand:wikipedia": "vi:VinMart",
            "name": "WinMart+",
            "shop": "convenience"
        }
    },
    {
        "type": "node",
        "id": "5579554621",
        "lat": "21.0115978",
        "lon": "105.8477851",
        "tags": {
            "addr:housenumber": "51",
            "addr:street": "Lê Đại Hành",
            "name": "Seikamart",
            "shop": "supermarket"
        }
    },
    {
        "type": "node",
        "id": "5595959521",
        "lat": "21.0060945",
        "lon": "105.8321759",
        "tags": {
            "addr:city": "Hà Nội",
            "addr:district": "Đống Đa",
            "addr:housenumber": "2",
            "addr:province": "Hà Nội",
            "addr:street": "Phố Phạm Ngọc Thạch",
            "addr:subdistrict": "Trung Tự",
            "brand": "WinMart",
            "brand:wikidata": "Q60245505",
            "brand:wikipedia": "vi:VinMart",
            "level": "-1",
            "name": "WinMart",
            "shop": "supermarket"
        }
    },
    {
        "type": "node",
        "id": "5603479821",
        "lat": "21.0133530",
        "lon": "105.8197131",
        "tags": {
            "addr:street": "Thái Hà",
            "name": "Siêu thị Minh Hoa Thái Hà",
            "shop": "supermarket"
        }
    },
    {
        "type": "node",
        "id": "5606598224",
        "lat": "20.9998667",
        "lon": "105.8286292",
        "tags": {
            "addr:city": "Hà Nội",
            "addr:district": "Thanh Xuân",
            "addr:housenumber": "3",
            "addr:province": "Hà Nội",
            "addr:street": "Phố Lê Trọng Tấn",
            "addr:subdistrict": "Khương Mai",
            "branch": "Lê Trọng Tấn",
            "name": "Tops Market",
            "opening_hours": "Mo-Su 08:00-22:00",
            "operator": "CÔNG TY TNHH DỊCH VỤ EB",
            "payment:cash": "yes",
            "payment:credit_cards": "yes",
            "payment:debit_cards": "yes",
            "payment:qr_pay": "yes",
            "phone": "+84 865 671 423",
            "shop": "supermarket",
            "website": "https://topsmarket.vn/"
        }
    },
    {
        "type": "node",
        "id": "5608461621",
        "lat": "21.0063252",
        "lon": "105.8351653",
        "tags": {
            "addr:street": "Phố Lương Đình Của",
            "name": "Siêu Thị Hapro",
            "shop": "supermarket"
        }
    },
    {
        "type": "node",
        "id": "5608880702",
        "lat": "21.0074590",
        "lon": "105.7936190",
        "tags": {
            "alt_name": "PNJ BigC Thăng Long",
            "brand": "PNJ",
            "brand:wikidata": "Q61129183",
            "name": "PNJ",
            "shop": "jewelry",
            "website": "https://www.pnj.com.vn/"
        }
    },
    {
        "type": "node",
        "id": "5608881107",
        "lat": "20.9998410",
        "lon": "105.8283720",
        "tags": {
            "addr:street": "Tôn Thất Tùng",
            "alt_name": "PNJ BigC Lê Trọng Tấn",
            "brand": "PNJ",
            "brand:wikidata": "Q61129183",
            "brand:wikipedia": "vi:PNJ",
            "name": "PNJ",
            "shop": "jewelry",
            "website": "https://www.pnj.com.vn/"
        }
    },
    {
        "type": "node",
        "id": "5608881328",
        "lat": "21.0025580",
        "lon": "105.8445961",
        "tags": {
            "addr:housenumber": "26",
            "addr:street": "Trần Đại Nghĩa",
            "brand": "PNJ",
            "brand:wikidata": "Q61129183",
            "brand:wikipedia": "vi:PNJ",
            "name": "PNJ",
            "shop": "jewelry",
            "website": "https://www.pnj.com.vn/"
        }
    },
    {
        "type": "node",
        "id": "5608881337",
        "lat": "21.0093210",
        "lon": "105.8490810",
        "tags": {
            "alt_name": "PNJ Vincom Bà Triệu",
            "brand": "PNJ",
            "brand:wikidata": "Q61129183",
            "name": "PNJ",
            "shop": "jewelry",
            "website": "https://www.pnj.com.vn/"
        }
    },
    {
        "type": "node",
        "id": "5608881343",
        "lat": "21.0011690",
        "lon": "105.8161010",
        "tags": {
            "alt_name": "PNJ Vincom Royal",
            "brand": "PNJ",
            "name": "PNJ",
            "shop": "jewelry",
            "website": "https://www.pnj.com.vn/"
        }
    },
    {
        "type": "node",
        "id": "5609997886",
        "lat": "21.0002256",
        "lon": "105.8220396",
        "tags": {
            "addr:full": "Số nhà 3, phố Tô Vĩnh Diện, phường Khương Trung, quận Thanh Xuân, Hà Nội",
            "addr:housenumber": "3",
            "addr:street": "Phố Tô Vĩnh Diện",
            "alt_name": "VinMart+ Số 3 Tô Vĩnh Diện",
            "brand": "VinMart",
            "brand:wikidata": "Q60245505",
            "brand:wikipedia": "vi:VinMart",
            "name": "VinMart+",
            "phone": "18006968",
            "shop": "convenience",
            "website": "http://www.vinmartplus.vn"
        }
    },
    {
        "type": "node",
        "id": "5609997896",
        "lat": "21.0077526",
        "lon": "105.8138750",
        "tags": {
            "addr:full": "Số nhà 67 ngõ 213 phố Giáp Nhất, phường Nhân Chính, quận Thanh Xuân, Hà Nội",
            "addr:housenumber": "213/67",
            "addr:street": "Giáp Nhất",
            "alt_name": "VinMart+ 67 ngõ 213 Giáp Nhất",
            "name": "VinMart+",
            "phone": "901722748",
            "shop": "convenience",
            "website": "http://www.vinmartplus.vn"
        }
    },
    {
        "type": "node",
        "id": "5609997898",
        "lat": "21.0135015",
        "lon": "105.8222435",
        "tags": {
            "addr:full": "Số 169 Đặng Tiến Đông, phường Trung Liệt, quận Đống Đa, Hà Nội",
            "addr:housenumber": "169",
            "addr:street": "Đặng Tiến Đông",
            "alt_name": "VinMart+ 169 Đặng Tiến Đông",
            "name": "VinMart+",
            "phone": "901722038",
            "shop": "convenience",
            "website": "http://www.vinmartplus.vn"
        }
    },
    {
        "type": "node",
        "id": "5609998350",
        "lat": "21.0052486",
        "lon": "105.8264277",
        "tags": {
            "addr:full": "Số 71 phố Khương Thượng, phường Trung Liệt, quận Đống Đa, Hà Nội",
            "addr:housenumber": "71",
            "addr:street": "Khương Thượng",
            "alt_name": "VinMart+ 71 Khương Thượng",
            "brand": "VinMart",
            "brand:wikidata": "Q60245505",
            "brand:wikipedia": "vi:VinMart",
            "name": "VinMart+",
            "phone": "901722746",
            "shop": "convenience",
            "website": "http://www.vinmartplus.vn"
        }
    },
    {
        "type": "node",
        "id": "5609998359",
        "lat": "21.0155646",
        "lon": "105.8284662",
        "tags": {
            "addr:full": "150 Nguyễn Lương Bằng, phường Nam Đồng, quận Đống Đa, Hà Nội",
            "addr:housenumber": "150",
            "addr:street": "Nguyễn Lương Bằng",
            "alt_name": "VinMart+ 150 Nguyễn Lương Bằng",
            "name": "VinMart+",
            "phone": "901723854",
            "shop": "convenience",
            "website": "http://www.vinmartplus.vn"
        }
    },
    {
        "type": "node",
        "id": "5609998380",
        "lat": "20.9997133",
        "lon": "105.8108440",
        "tags": {
            "addr:full": "77, Chính Kinh, Nhân Chính, Thanh Xuân, Hà Nội",
            "addr:housenumber": "77",
            "addr:street": "Chính Kinh",
            "alt_name": "VinMart+ 77 Chính Kinh",
            "name": "VinMart+",
            "phone": "22611888",
            "shop": "convenience",
            "website": "http://www.vinmartplus.vn"
        }
    },
    {
        "type": "node",
        "id": "5609998409",
        "lat": "20.9989285",
        "lon": "105.8255909",
        "tags": {
            "addr:full": "Số 160 Nguyễn Ngọc Nại, phường Khương Mai, quận Thanh Xuân, Hà Nội",
            "addr:housenumber": "160",
            "addr:street": "Phố Nguyễn Ngọc Nại",
            "alt_name": "VinMart+ 160 Nguyễn Ngọc Nại",
            "brand": "VinMart",
            "brand:wikidata": "Q60245505",
            "brand:wikipedia": "vi:VinMart",
            "name": "VinMart+",
            "phone": "63258387",
            "shop": "convenience",
            "website": "http://www.vinmartplus.vn"
        }
    },
    {
        "type": "node",
        "id": "5609998414",
        "lat": "21.0152642",
        "lon": "105.8529279",
        "tags": {
            "addr:full": "Số 17 Hòa Mã, phường Ngô Thì Nhậm, quận Hai Bà Trưng, HN",
            "addr:housenumber": "17",
            "addr:street": "Hòa Mã",
            "alt_name": "VinMart+ 17 Hòa Mã",
            "name": "VinMart+",
            "phone": "22620999",
            "shop": "convenience",
            "website": "http://www.vinmartplus.vn"
        }
    },
    {
        "type": "node",
        "id": "5609998730",
        "lat": "21.0143478",
        "lon": "105.8510343",
        "tags": {
            "addr:full": "59 Mai Hắc Đế, phường Bùi Thị Xuân, Hai Bà Trưng, Hà Nội",
            "addr:housenumber": "59",
            "addr:street": "Phố Mai Hắc Đế",
            "alt_name": "VinMart+ 59 Mai Hắc Đế",
            "name": "VinMart+",
            "phone": "18006968",
            "shop": "convenience",
            "website": "http://www.vinmartplus.vn"
        }
    },
    {
        "type": "node",
        "id": "5609998740",
        "lat": "20.9986280",
        "lon": "105.8205376",
        "tags": {
            "addr:full": "Số 229 phố Hoàng Văn Thái, phường Khương Trung, quận Thanh Xuân, Hà Nội",
            "addr:housenumber": "229",
            "addr:street": "Phố Hoàng Văn Thái",
            "alt_name": "VinMart+ 229 Hoàng Văn Thái",
            "brand": "WinMart+",
            "brand:wikidata": "Q113236478",
            "brand:wikipedia": "vi:VinMart",
            "name": "WinMart+",
            "phone": "901720264",
            "shop": "convenience",
            "website": "http://www.vinmartplus.vn"
        }
    },
    {
        "type": "node",
        "id": "5609998759",
        "lat": "21.0022175",
        "lon": "105.8067966",
        "tags": {
            "addr:full": "Số 44/116 Nhân Hòa, Phường Nhân Chính, quận Thanh Xuân, Thành Phố Hà Nội",
            "addr:housenumber": "116/44",
            "addr:street": "Ngõ 116 Nhân Hòa",
            "alt_name": "VinMart+ 44/116 Nhân Hòa",
            "name": "VinMart+",
            "phone": "62969865",
            "shop": "convenience",
            "website": "http://www.vinmartplus.vn"
        }
    },
    {
        "type": "node",
        "id": "5609998764",
        "lat": "21.0114072",
        "lon": "105.8087605",
        "tags": {
            "addr:full": "41, Nguyễn Ngọc Vũ, Trung Hòa, Cầu Giấy, Hà Nội",
            "addr:housenumber": "141",
            "addr:street": "Đường Nguyễn Ngọc Vũ",
            "alt_name": "VinMart+ 41 Nguyễn Ngọc Vũ",
            "brand": "WinMart+",
            "brand:wikidata": "Q113236478",
            "name": "WinMart+",
            "phone": "901704434",
            "shop": "convenience",
            "website": "http://www.vinmartplus.vn"
        }
    },
    {
        "type": "node",
        "id": "5609998765",
        "lat": "21.0020899",
        "lon": "105.8082262",
        "tags": {
            "addr:full": "Số 76 Nhân Hòa, phường Nhân Chính, quận Thanh Xuân, Hà Nội",
            "addr:housenumber": "76",
            "addr:street": "Phố Nhân Hòa",
            "alt_name": "VinMart+ 76 Nhân Hòa",
            "name": "WinMart+",
            "phone": "901702587",
            "shop": "convenience",
            "website": "http://www.vinmartplus.vn"
        }
    },
    {
        "type": "node",
        "id": "5609998774",
        "lat": "21.0068912",
        "lon": "105.8066008",
        "tags": {
            "addr:full": "Số 1 ngõ 71 Lê Văn Lương, phường Nhân Chính, quận Thanh Xuân, Hà Nội",
            "addr:housenumber": "71/1",
            "addr:street": "Lê Văn Lương",
            "alt_name": "VinMart+ 1 ngõ 71 Lê Văn Lương",
            "name": "VinMart+",
            "phone": "901722886",
            "shop": "convenience",
            "website": "http://www.vinmartplus.vn"
        }
    },
    {
        "type": "node",
        "id": "5609998779",
        "lat": "20.9983375",
        "lon": "105.8212779",
        "tags": {
            "addr:full": "Số 183 Hoàng Văn Thái, Phường Khương Trung, Quận Thanh Xuân, Thành phố Hà Nội",
            "addr:housenumber": "183",
            "addr:street": "Hoàng Văn Thái",
            "alt_name": "VinMart+ Hoàng Văn Thái",
            "name": "VinMart+",
            "phone": "62543321",
            "shop": "convenience",
            "website": "http://www.vinmartplus.vn"
        }
    },
    {
        "type": "node",
        "id": "5609998782",
        "lat": "20.9989135",
        "lon": "105.8502122",
        "tags": {
            "addr:full": "150 Bạch Mai, phường Cầu Dền, quận Hai Bà Trưng, Hà Nội",
            "addr:housenumber": "150",
            "addr:street": "Bạch Mai",
            "alt_name": "VinMart+ 150 Bạch Mai",
            "brand": "WinMart+",
            "brand:wikidata": "Q113236478",
            "brand:wikipedia": "vi:VinMart",
            "name": "WinMart+",
            "phone": "432151120",
            "shop": "convenience",
            "website": "http://www.vinmartplus.vn"
        }
    },
    {
        "type": "node",
        "id": "5609998792",
        "lat": "21.0088543",
        "lon": "105.8517692",
        "tags": {
            "addr:full": "562 Trần Khát Chân, Phường Phố Huế, Quận Hai Bà Trưng, Hà Nội",
            "addr:housenumber": "562",
            "addr:street": "Đường Trần Khát Chân",
            "alt_name": "VinMart+ 562 Trần Khát Chân",
            "brand": "WinMart+",
            "brand:wikidata": "Q113236478",
            "brand:wikipedia": "vi:VinMart",
            "name": "WinMart+",
            "phone": "22479888",
            "shop": "convenience",
            "website": "http://www.vinmartplus.vn"
        }
    },
    {
        "type": "node",
        "id": "5609999050",
        "lat": "21.0139922",
        "lon": "105.8110238",
        "tags": {
            "addr:full": "Số 37 phố Vũ Ngọc Phan, phường Láng Hạ, quận Đống Đa, Hà Nội",
            "addr:housenumber": "37",
            "addr:street": "Phõ Vũ Ngọc Phan",
            "alt_name": "VinMart+ 37 Vũ Ngọc Phan",
            "name": "VinMart+",
            "phone": "18006968",
            "shop": "convenience",
            "website": "http://www.vinmartplus.vn"
        }
    },
    {
        "type": "node",
        "id": "5609999087",
        "lat": "21.0036261",
        "lon": "105.8362768",
        "tags": {
            "addr:full": "Số 2 ngõ 167 Phương Mai, phường Kim Liên, quận Đống Đa, Hà Nội",
            "addr:housenumber": "167/2",
            "addr:street": "Phương Mai",
            "alt_name": "VinMart+ 2 ngõ 167 Phương Mai",
            "name": "VinMart+",
            "phone": "901722747",
            "shop": "convenience",
            "website": "http://www.vinmartplus.vn"
        }
    },
    {
        "type": "node",
        "id": "5609999088",
        "lat": "21.0132110",
        "lon": "105.8012579",
        "tags": {
            "addr:full": "Số 41, Tổ 5, Phố Trung Kính, Phường Trung Hòa, Quận Cầu Giấy, Hà Nội",
            "addr:housenumber": "41",
            "addr:street": "Trung Kính",
            "alt_name": "VinMart+ 41 Trung Kính",
            "brand": "WinMart+",
            "brand:wikidata": "Q113236478",
            "name": "WinMart+",
            "phone": "63258397",
            "shop": "convenience",
            "website": "http://www.vinmartplus.vn"
        }
    },
    {
        "type": "node",
        "id": "5609999095",
        "lat": "21.0015227",
        "lon": "105.8507393",
        "tags": {
            "addr:full": "Số 409 Bạch Mai, phường Bạch Mai, Quận Hai Bà Trưng, Hà Nội",
            "addr:housenumber": "409",
            "addr:street": "Bạch Mai",
            "alt_name": "VinMart+ 409 Bạch Mai",
            "brand": "WinMart+",
            "brand:wikidata": "Q113236478",
            "name": "WinMart+",
            "phone": "62922860",
            "shop": "convenience",
            "website": "http://www.vinmartplus.vn"
        }
    },
    {
        "type": "node",
        "id": "5609999110",
        "lat": "21.0118264",
        "lon": "105.8542583",
        "tags": {
            "addr:full": "phần tầng 1 toà nhà N3, Khu Nhà ở Cải tạo chung cư cũ, ngõ Nguyễn Công Trứ, đường Nguyễn Công Trứ, Phường Phố Huế, Quận Hai Bà Trưng Hà Nội",
            "addr:housenumber": "N3",
            "addr:street": "Nguyễn Công Trứ",
            "alt_name": "VinMart+ N3 Nguyễn Công Trứ",
            "name": "VinMart+",
            "phone": "18006968",
            "shop": "convenience",
            "website": "http://www.vinmartplus.vn"
        }
    },
    {
        "type": "node",
        "id": "5609999114",
        "lat": "21.0111154",
        "lon": "105.8305996",
        "tags": {
            "addr:city": "Hà Nội",
            "addr:district": "Đống Đa",
            "addr:full": "1A Phố Hồ Đắc Di, Nam Đồng, Đống Đa, Hà Nội, Vietnam",
            "addr:housenumber": "1A",
            "addr:province": "Hà Nội",
            "addr:street": "Phố Hồ Đắc Di",
            "addr:subdistrict": "Nam Đồng",
            "brand": "Circle K",
            "brand:wikidata": "Q3268010",
            "brand:wikipedia": "en:Circle K",
            "name": "Circle K",
            "phone": "+84 24 3998 3536",
            "shop": "convenience",
            "website": "https://www.circlek.com.vn/en/"
        }
    },
    {
        "type": "node",
        "id": "5609999115",
        "lat": "21.0107843",
        "lon": "105.8025447",
        "tags": {
            "addr:full": "Số 3 ngõ 55 Đỗ Quang, phường Trung Hòa, quận Cầu Giấy, Hà Nội",
            "addr:housenumber": "55/3",
            "addr:street": "Đỗ Quang",
            "alt_name": "VinMart+ 3 ngõ 55 Đỗ Quang",
            "brand": "WinMart+",
            "brand:wikidata": "Q113236478",
            "name": "WinMart+",
            "phone": "901701868",
            "shop": "convenience",
            "website": "http://www.vinmartplus.vn"
        }
    },
    {
        "type": "node",
        "id": "5609999979",
        "lat": "21.0073820",
        "lon": "105.8500419",
        "tags": {
            "addr:full": "Số 38 Đê Tô Hoàng, phường Cầu Dền, quận Hai Bà Trưng, Hà Nội",
            "addr:housenumber": "38",
            "addr:street": "Đê Tô Hoàng",
            "alt_name": "VinMart+ 38 Đê Tô Hoàng",
            "name": "VinMart+",
            "phone": "901702962",
            "shop": "convenience",
            "website": "http://www.vinmartplus.vn"
        }
    },
    {
        "type": "node",
        "id": "5609999986",
        "lat": "20.9980170",
        "lon": "105.8471344",
        "tags": {
            "addr:full": "23, Ngõ Tự Do tổ 47, Trương Định, Hai Bà Trưng, Hà Nội",
            "addr:housenumber": "23",
            "addr:street": "Tự Do",
            "alt_name": "VinMart+ 23 Ngõ Tự Do",
            "brand": "WinMart+",
            "brand:wikidata": "Q113236478",
            "name": "WinMart+",
            "phone": "22461789",
            "shop": "convenience",
            "website": "http://www.vinmartplus.vn"
        }
    },
    {
        "type": "node",
        "id": "5609999993",
        "lat": "21.0114784",
        "lon": "105.8377359",
        "tags": {
            "addr:full": "166, Kim Hoa, Phương Liên, Đống Đa, Hà Nội",
            "addr:housenumber": "166",
            "addr:street": "Kim Hoa",
            "alt_name": "VinMart+ 166 Kim Hoa",
            "name": "VinMart+",
            "phone": "22629888",
            "shop": "convenience",
            "website": "http://www.vinmartplus.vn"
        }
    },
    {
        "type": "node",
        "id": "5609999998",
        "lat": "21.0006513",
        "lon": "105.8454539",
        "tags": {
            "addr:full": "Số 167 Trần Đại Nghĩa, phường Bách Khoa, quận Hai Bà Trưng, Hà Nội",
            "addr:housenumber": "167",
            "addr:street": "Trần Đại Nghĩa",
            "alt_name": "VinMart+ 167 Trần Đại Nghĩa",
            "brand": "WinMart+",
            "brand:wikidata": "Q113236478",
            "name": "WinMart+",
            "phone": "901722025",
            "shop": "convenience",
            "website": "http://www.vinmartplus.vn"
        }
    },
    {
        "type": "node",
        "id": "5610000020",
        "lat": "21.0091198",
        "lon": "105.7933221",
        "tags": {
            "addr:full": "Số 19A tổ 39 Nguyễn Chánh, phường Trung Hòa, quận Cầu Giấy, Hà Nội",
            "addr:housenumber": "19A",
            "addr:street": "Nguyễn Chánh",
            "alt_name": "VinMart+ 19A Nguyễn Chánh",
            "brand": "WinMart+",
            "brand:wikidata": "Q113236478",
            "brand:wikipedia": "vi:WinMart",
            "name": "WinMart+",
            "phone": "901722802",
            "shop": "convenience",
            "website": "http://www.vinmartplus.vn"
        }
    },
    {
        "type": "node",
        "id": "5610000231",
        "lat": "21.0000278",
        "lon": "105.8505998",
        "tags": {
            "addr:full": "Số 347 Bạch Mai, Phường Bạch Mai, Quận Hai Bà Trưng, Hà Nội",
            "addr:housenumber": "347",
            "addr:street": "Bạch Mai",
            "alt_name": "VinMart+ 347 Bạch Mai",
            "name": "VinMart+",
            "phone": "63267739",
            "shop": "convenience",
            "website": "http://www.vinmartplus.vn"
        }
    },
    {
        "type": "node",
        "id": "5610000232",
        "lat": "21.0130007",
        "lon": "105.8166216",
        "tags": {
            "addr:full": "Số 158 phố Thái Thịnh, phường Láng Hạ, quận Đống Đa, Hà Nội",
            "addr:housenumber": "158",
            "addr:street": "Thái Thịnh",
            "alt_name": "VinMart+ 158 Thái Thịnh",
            "brand": "VinMart",
            "brand:wikidata": "Q60245505",
            "brand:wikipedia": "vi:VinMart",
            "name": "VinMart+",
            "phone": "901720251",
            "shop": "convenience",
            "website": "http://www.vinmartplus.vn"
        }
    },
    {
        "type": "node",
        "id": "5610000271",
        "lat": "20.9984577",
        "lon": "105.8031032",
        "tags": {
            "addr:full": "Số 165 Nguyễn Tuân, phường Thanh Xuân Trung, quận Thanh Xuân, Hà Nội",
            "addr:housenumber": "165",
            "addr:street": "Nguyễn Tuân",
            "alt_name": "VinMart+ 165 Nguyễn Tuân",
            "name": "VinMart+",
            "phone": "901722795",
            "shop": "convenience",
            "website": "http://www.vinmartplus.vn"
        }
    },
    {
        "type": "node",
        "id": "5610000307",
        "lat": "21.0043472",
        "lon": "105.8310411",
        "tags": {
            "addr:full": "Số 10 ngõ 10 Tôn Thất Tùng,Phường Khương Thượng, Quận Đống Đa, Hà Nội",
            "addr:housenumber": "10/10",
            "addr:street": "Phố Tôn Thất Tùng",
            "alt_name": "VinMart+ 10 Ngõ 10 Tôn Thất Tùng",
            "brand": "VinMart",
            "brand:wikidata": "Q60245505",
            "brand:wikipedia": "vi:VinMart",
            "name": "VinMart+",
            "phone": "901702199",
            "shop": "convenience",
            "website": "http://www.vinmartplus.vn"
        }
    },
    {
        "type": "node",
        "id": "5610000311",
        "lat": "21.0087541",
        "lon": "105.8077595",
        "tags": {
            "addr:full": "Số 149 phố Hoàng Ngân, Phường Trung Hòa, Quận Cầu Giấy, Hà Nội",
            "addr:housenumber": "149",
            "addr:street": "Hoàng Ngân",
            "alt_name": "VinMart+ 149 Hoàng Ngân",
            "name": "VinMart+",
            "phone": "62913807",
            "shop": "convenience",
            "website": "http://www.vinmartplus.vn"
        }
    },
    {
        "type": "node",
        "id": "5611266121",
        "lat": "20.9987006",
        "lon": "105.8283320",
        "tags": {
            "addr:street": "Phó Lê Trọng Tấn",
            "name": "Siêu thị Thành Công",
            "shop": "supermarket"
        }
    },
    {
        "type": "node",
        "id": "5616362521",
        "lat": "21.0053119",
        "lon": "105.8016442",
        "tags": {
            "addr:street": "Hoàng Đạo Thúy",
            "name": "Cửa Hàng Tiện Lợi Huy Mart",
            "shop": "convenience"
        }
    },
    {
        "type": "node",
        "id": "5632029722",
        "lat": "20.9997367",
        "lon": "105.8372841",
        "tags": {
            "addr:street": "Ngõ 102",
            "branch": "Trường Chinh",
            "brand": "WinMart",
            "brand:wikidata": "Q60245505",
            "name": "WinMart",
            "shop": "supermarket"
        }
    },
    {
        "type": "node",
        "id": "5640928226",
        "lat": "20.9986491",
        "lon": "105.8525337",
        "tags": {
            "addr:street": "Hồng Mai",
            "name": "Vinmart",
            "shop": "supermarket"
        }
    },
    {
        "type": "node",
        "id": "5642916124",
        "lat": "21.0145197",
        "lon": "105.8510081",
        "tags": {
            "addr:housenumber": "59",
            "addr:street": "Phố Mai Hắc Đế",
            "name": "vinmart",
            "shop": "department_store"
        }
    },
    {
        "type": "node",
        "id": "5694009529",
        "lat": "21.0063225",
        "lon": "105.8356278",
        "tags": {
            "addr:city": "Hà Nội",
            "addr:district": "Đống Đa",
            "addr:housenumber": "19",
            "addr:province": "Hà Nội",
            "addr:street": "Phố Lương Định Của",
            "addr:subdistrict": "Kim Liên",
            "brand": "WinMart+",
            "brand:wikidata": "Q113236478",
            "name": "WinMart+",
            "shop": "convenience"
        }
    },
    {
        "type": "node",
        "id": "5694009530",
        "lat": "21.0029544",
        "lon": "105.8344213",
        "tags": {
            "name": "Vin+ 2/167 Phương Mai",
            "shop": "supermarket"
        }
    },
    {
        "type": "node",
        "id": "5694054123",
        "lat": "21.0044813",
        "lon": "105.8392693",
        "tags": {
            "name": "Vin+ 1/4 Phương Mai",
            "shop": "supermarket"
        }
    },
    {
        "type": "node",
        "id": "5712705921",
        "lat": "21.0059864",
        "lon": "105.8512969",
        "tags": {
            "addr:housenumber": "150",
            "addr:street": "Bạch Mai",
            "brand": "WinMart+",
            "brand:wikidata": "Q113236478",
            "name": "WinMart+",
            "shop": "convenience"
        }
    },
    {
        "type": "node",
        "id": "5818327809",
        "lat": "21.0085734",
        "lon": "105.8541802",
        "tags": {
            "name": "Du Lịch Camel Travel",
            "name:de": "Camel Travel",
            "name:en": "Camel Travel",
            "name:vi": "Camel Travel",
            "shop": "travel_agency"
        }
    },
    {
        "type": "node",
        "id": "6136316985",
        "lat": "21.0021596",
        "lon": "105.8086362",
        "tags": {
            "addr:housenumber": "52",
            "addr:street": "Phố Nhân Hòa",
            "name": "Sơn Hà",
            "shop": "convenience"
        }
    },
    {
        "type": "node",
        "id": "6189951213",
        "lat": "21.0021655",
        "lon": "105.7919935",
        "tags": {
            "name": "Vinmart",
            "shop": "supermarket"
        }
    },
    {
        "type": "node",
        "id": "6202700285",
        "lat": "20.9997180",
        "lon": "105.8016727",
        "tags": {
            "name": "Winmart+",
            "shop": "supermarket"
        }
    },
    {
        "type": "node",
        "id": "6243862587",
        "lat": "21.0027355",
        "lon": "105.8021921",
        "tags": {
            "name": "Unikmart",
            "shop": "supermarket"
        }
    },
    {
        "type": "node",
        "id": "6243894386",
        "lat": "20.9996969",
        "lon": "105.8046127",
        "tags": {
            "name": "Vinmart+ 6 Lê Văn Thiêm",
            "shop": "supermarket"
        }
    },
    {
        "type": "node",
        "id": "6243895186",
        "lat": "21.0012625",
        "lon": "105.8034543",
        "tags": {
            "name": "Unikmart 2 LVT",
            "shop": "supermarket"
        }
    },
    {
        "type": "node",
        "id": "6281453795",
        "lat": "21.0041683",
        "lon": "105.8237666",
        "tags": {
            "addr:housenumber": "106",
            "addr:street": "ngõ 554 Trường Chinh",
            "email": "warcheft@gmail.com",
            "name": "Phu Kien Vape Hanoi",
            "opening_hours": "Mo-Su 10:00-23:00",
            "phone": "0912985398",
            "shop": "e-cigarette",
            "website": "https://phukienvapehanoi.com/"
        }
    },
    {
        "type": "node",
        "id": "6371396085",
        "lat": "21.0031397",
        "lon": "105.8138250",
        "tags": {
            "name": "Vinmart+ R1 Royal City",
            "shop": "supermarket"
        }
    },
    {
        "type": "node",
        "id": "6437591786",
        "lat": "21.0031873",
        "lon": "105.8162139",
        "tags": {
            "brand": "Decathlon",
            "brand:wikidata": "Q509349",
            "brand:wikipedia": "en:Decathlon Group",
            "internet_access": "wlan",
            "name": "Decathlon",
            "name:en": "Decathlon",
            "opening_hours": "Mo-Su 09:30-22:00",
            "shop": "sports",
            "website": "https://m.decathlon.vn/vi/"
        }
    },
    {
        "type": "node",
        "id": "6533685988",
        "lat": "21.0099730",
        "lon": "105.8056127",
        "tags": {
            "brand": "Circle K",
            "brand:wikidata": "Q3268010",
            "name": "Circle K",
            "shop": "convenience"
        }
    },
    {
        "type": "node",
        "id": "6566988885",
        "lat": "21.0133597",
        "lon": "105.8490722",
        "tags": {
            "name:en": "Hai Ha Laundry",
            "shop": "laundry"
        }
    },
    {
        "type": "node",
        "id": "6628606489",
        "lat": "21.0018225",
        "lon": "105.7945338",
        "tags": {
            "addr:housenumber": "281",
            "addr:street": "Khuất Duy Tiến",
            "name": "Trung Tâm HTC Auto",
            "shop": "car"
        }
    },
    {
        "type": "node",
        "id": "6657842580",
        "lat": "21.0039684",
        "lon": "105.8453576",
        "tags": {
            "addr:housenumber": "107",
            "addr:street": "Phố Trần Đại Nghĩa",
            "email": "photo66pro@gmail.com",
            "name": "In Tuân Hồng",
            "phone": "0984908426, 0973508186",
            "shop": "copyshop",
            "wheelchair": "no"
        }
    },
    {
        "type": "node",
        "id": "6657842581",
        "lat": "21.0038896",
        "lon": "105.8452517",
        "tags": {
            "addr:housenumber": "109",
            "addr:street": "Phố Trần Đại Nghĩa",
            "email": "inbkpro@gmail.com",
            "name": "In Nhanh Pro",
            "phone": "02462931993",
            "shop": "copyshop",
            "wheelchair": "no"
        }
    },
    {
        "type": "node",
        "id": "6658873518",
        "lat": "21.0004516",
        "lon": "105.8506630",
        "tags": {
            "addr:street": "Phố Bạch Mai",
            "brand": "WinMart+",
            "brand:wikidata": "Q113236478",
            "name": "WinMart+",
            "shop": "convenience"
        }
    },
    {
        "type": "node",
        "id": "6659047609",
        "lat": "21.0055685",
        "lon": "105.8511163",
        "tags": {
            "addr:street": "Phố Bạch Mai",
            "name": "VinMart+",
            "shop": "convenience"
        }
    },
    {
        "type": "node",
        "id": "6661635851",
        "lat": "21.0042514",
        "lon": "105.8394943",
        "tags": {
            "addr:street": "Phố Phương Mai",
            "brand": "WinMart+",
            "brand:wikidata": "Q113236478",
            "brand:wikipedia": "vi:VinMart",
            "name": "WinMart+",
            "shop": "convenience"
        }
    },
    {
        "type": "node",
        "id": "6676464997",
        "lat": "21.0017862",
        "lon": "105.7506502",
        "tags": {
            "addr:housenumber": "29",
            "addr:street": "Đường Tây Mỗ",
            "name": "VinMart+",
            "shop": "convenience"
        }
    },
    {
        "type": "node",
        "id": "6677152531",
        "lat": "21.0031609",
        "lon": "105.8071355",
        "tags": {
            "addr:housenumber": "44",
            "addr:street": "Ngõ 116 Nhân Hòa",
            "brand": "VinMart",
            "name": "VinMart+",
            "shop": "convenience"
        }
    },
    {
        "type": "node",
        "id": "6677802684",
        "lat": "21.0067141",
        "lon": "105.8118528",
        "tags": {
            "addr:housenumber": "86",
            "addr:street": "Phố Quan Nhân",
            "brand": "VinMart",
            "name": "VinMart+",
            "shop": "convenience"
        }
    },
    {
        "type": "node",
        "id": "6684445888",
        "lat": "20.9986939",
        "lon": "105.8523907",
        "tags": {
            "name": "Vm+ 69 hồng mai",
            "shop": "supermarket"
        }
    },
    {
        "type": "node",
        "id": "6684445892",
        "lat": "21.0144431",
        "lon": "105.8102757",
        "tags": {
            "name": "Vm+ 37 vũ ngọc phan",
            "shop": "supermarket"
        }
    },
    {
        "type": "node",
        "id": "6684445893",
        "lat": "21.0155853",
        "lon": "105.8282140",
        "tags": {
            "name": "Vm+ 150 nguyễn lương bằng",
            "shop": "supermarket"
        }
    },
    {
        "type": "node",
        "id": "6684445897",
        "lat": "21.0142470",
        "lon": "105.7685259",
        "tags": {
            "name": "Vm+ số 2 ngách 8/11 lê quang đạo",
            "shop": "supermarket"
        }
    },
    {
        "type": "node",
        "id": "6684445898",
        "lat": "21.0006364",
        "lon": "105.7509342",
        "tags": {
            "name": "Vm+ 29 tây mỗ",
            "shop": "supermarket"
        }
    },
    {
        "type": "node",
        "id": "6684445992",
        "lat": "21.0008650",
        "lon": "105.7830330",
        "tags": {
            "brand": "VinMart",
            "brand:wikidata": "Q60245505",
            "brand:wikipedia": "vi:VinMart",
            "name": "VinMart+",
            "shop": "convenience"
        }
    },
    {
        "type": "node",
        "id": "6684445993",
        "lat": "21.0052583",
        "lon": "105.7199609",
        "tags": {
            "name": "Vm+ thôn vân lũng",
            "shop": "supermarket"
        }
    },
    {
        "type": "node",
        "id": "6684445994",
        "lat": "21.0114184",
        "lon": "105.7770558",
        "tags": {
            "name": "Vm+ TDP số 5 mễ trì hạ",
            "shop": "supermarket"
        }
    },
    {
        "type": "node",
        "id": "6684446000",
        "lat": "21.0146469",
        "lon": "105.8484359",
        "tags": {
            "brand": "WinMart+",
            "brand:wikidata": "Q113236478",
            "name": "WinMart+",
            "shop": "convenience"
        }
    },
    {
        "type": "node",
        "id": "6684446001",
        "lat": "21.0051547",
        "lon": "105.7785424",
        "tags": {
            "name": "Vm+ 21-23 mễ trì thượng",
            "shop": "supermarket"
        }
    },
    {
        "type": "node",
        "id": "6684446287",
        "lat": "21.0099421",
        "lon": "105.8304248",
        "tags": {
            "brand": "WinMart+",
            "brand:wikidata": "Q113236478",
            "name": "WinMart+",
            "shop": "convenience"
        }
    },
    {
        "type": "node",
        "id": "6684446290",
        "lat": "21.0042171",
        "lon": "105.8392625",
        "tags": {
            "name": "Vm+ 103/4 phương mai.",
            "shop": "supermarket"
        }
    },
    {
        "type": "node",
        "id": "6684446293",
        "lat": "21.0020953",
        "lon": "105.7922940",
        "tags": {
            "name": "Vm+ viglacera số1 đại lộ thăng long",
            "shop": "supermarket"
        }
    },
    {
        "type": "node",
        "id": "6684446390",
        "lat": "21.0136741",
        "lon": "105.7806703",
        "tags": {
            "name": "Vm+ số 23 ngõ 14 mễ trì hạ",
            "shop": "supermarket"
        }
    },
    {
        "type": "node",
        "id": "6684446587",
        "lat": "21.0052618",
        "lon": "105.8252240",
        "tags": {
            "name": "Vm+ 71 khương thượng",
            "shop": "supermarket"
        }
    },
    {
        "type": "node",
        "id": "6684446590",
        "lat": "21.0063277",
        "lon": "105.7693885",
        "tags": {
            "brand": "WinMart+",
            "brand:wikidata": "Q113236478",
            "brand:wikipedia": "vi:VinMart",
            "name": "WinMart+",
            "shop": "convenience"
        }
    },
    {
        "type": "node",
        "id": "6684446685",
        "lat": "21.0006567",
        "lon": "105.7844010",
        "tags": {
            "name": "V+ g2 vinhomes greenbay lương thế vinh",
            "shop": "supermarket"
        }
    },
    {
        "type": "node",
        "id": "6684446686",
        "lat": "20.9992321",
        "lon": "105.8504560",
        "tags": {
            "addr:housenumber": "409",
            "name": "WinMart+",
            "shop": "supermarket"
        }
    },
    {
        "type": "node",
        "id": "6684446687",
        "lat": "21.0029901",
        "lon": "105.8344597",
        "tags": {
            "name": "Vm+ 2/167 phương mai",
            "shop": "supermarket"
        }
    },
    {
        "type": "node",
        "id": "6684446692",
        "lat": "21.0137690",
        "lon": "105.8222805",
        "tags": {
            "name": "Vm+ 169 đặng tiến đông",
            "shop": "supermarket"
        }
    },
    {
        "type": "node",
        "id": "6684446696",
        "lat": "20.9983571",
        "lon": "105.7214769",
        "tags": {
            "brand": "WinMart+",
            "brand:wikidata": "Q113236478",
            "name": "WinMart+",
            "shop": "convenience"
        }
    },
    {
        "type": "node",
        "id": "6684446886",
        "lat": "21.0032156",
        "lon": "105.8492201",
        "tags": {
            "brand": "WinMart+",
            "brand:wikidata": "Q113236478",
            "name": "WinMart+",
            "shop": "convenience"
        }
    },
    {
        "type": "node",
        "id": "6684447085",
        "lat": "21.0004998",
        "lon": "105.8505992",
        "tags": {
            "name": "Vm+ 347 bạch mai",
            "shop": "supermarket"
        }
    },
    {
        "type": "node",
        "id": "6684447086",
        "lat": "21.0122841",
        "lon": "105.8169988",
        "tags": {
            "name": "Vm+ 158 thái thịnh",
            "shop": "supermarket"
        }
    },
    {
        "type": "node",
        "id": "6684448089",
        "lat": "21.0050971",
        "lon": "105.7283134",
        "tags": {
            "name": "Vm+ 18t1 lô hh6 kdt nam an khánh",
            "shop": "supermarket"
        }
    },
    {
        "type": "node",
        "id": "6685228143",
        "lat": "21.0060073",
        "lon": "105.8329484",
        "tags": {
            "addr:housenumber": "26",
            "addr:street": "Phố Đông Tác",
            "name": "Thành Công Motor",
            "shop": "car_repair"
        }
    },
    {
        "type": "node",
        "id": "6687492085",
        "lat": "21.0043313",
        "lon": "105.8292056",
        "tags": {
            "name": "VM+ 10/10 tôn thất tùng",
            "shop": "supermarket"
        }
    },
    {
        "type": "node",
        "id": "6694592385",
        "lat": "21.0117012",
        "lon": "105.8066854",
        "tags": {
            "name": "Salon A.Duy",
            "shop": "hairdresser"
        }
    },
    {
        "type": "node",
        "id": "6707840585",
        "lat": "21.0146965",
        "lon": "105.8074494",
        "tags": {
            "name": "Vm+ 32 Láng trung",
            "shop": "supermarket"
        }
    },
    {
        "type": "node",
        "id": "6715369161",
        "lat": "21.0126738",
        "lon": "105.8326173",
        "tags": {
            "addr:city": "Hà Nội",
            "addr:district": "Đống Đa",
            "addr:housenumber": "91",
            "addr:province": "Hà Nội",
            "addr:street": "Phố Nam Đồng",
            "addr:subdistrict": "Nam Đồng",
            "air_conditioning": "yes",
            "brand": "Circle K",
            "brand:wikidata": "Q3268010",
            "brand:wikipedia": "en:Circle K",
            "name": "Circle K",
            "payment:cash": "yes",
            "payment:credit_cards": "yes",
            "shop": "convenience",
            "website": "https://www.circlek.com.vn/en/store-locator/"
        }
    },
    {
        "type": "node",
        "id": "6751651385",
        "lat": "21.0009207",
        "lon": "105.8474586",
        "tags": {
            "name": "Vm+ 106 nguyễn hiền",
            "shop": "supermarket"
        }
    },
    {
        "type": "node",
        "id": "6758450685",
        "lat": "21.0082781",
        "lon": "105.7299562",
        "tags": {
            "brand": "WinMart+",
            "brand:wikidata": "Q113236478",
            "name": "WinMart+",
            "shop": "convenience"
        }
    },
    {
        "type": "node",
        "id": "6758465385",
        "lat": "21.0063297",
        "lon": "105.7266738",
        "tags": {
            "name": "Vm+ 18T2 The Golden An Khánh",
            "shop": "supermarket"
        }
    },
    {
        "type": "node",
        "id": "6758493185",
        "lat": "21.0034039",
        "lon": "105.7322190",
        "tags": {
            "name": "Vm+",
            "name:vi": "Vm+ A10 NV4 lê trọng tấn",
            "shop": "supermarket"
        }
    },
    {
        "type": "node",
        "id": "6776142185",
        "lat": "21.0089518",
        "lon": "105.7214692",
        "tags": {
            "shop": "supermarket"
        }
    },
    {
        "type": "node",
        "id": "6811944357",
        "lat": "21.0005166",
        "lon": "105.7836750",
        "tags": {
            "addr:city": "Hanoi",
            "addr:district": "Nam Từ Liêm",
            "addr:subdistrict": "Mễ Trì",
            "name": "Smarttabuy Mart",
            "shop": "convenience"
        }
    },
    {
        "type": "node",
        "id": "6811944360",
        "lat": "21.0012178",
        "lon": "105.7834359",
        "tags": {
            "addr:city": "Hanoi",
            "addr:district": "Nam Từ Liêm",
            "addr:subdistrict": "Mễ Trì",
            "name": "K-Market",
            "shop": "supermarket"
        }
    },
    {
        "type": "node",
        "id": "6813546207",
        "lat": "21.0070881",
        "lon": "105.8296109",
        "tags": {
            "addr:full": "57 Chùa Bộc, Hà Nội, Đống Đa, Việt Nam",
            "addr:housenumber": "57",
            "addr:street": "Chùa Bộc",
            "alt_name": "An Phước Hà Nội 4 - Chùa Bộc",
            "clothes": "suits",
            "name": "Cửa Hàng Thời Trang An Phước",
            "name:en": "An Phuoc",
            "opening_hours": "7:30-21:30",
            "phone": "024 3563 5591",
            "shop": "clothes"
        }
    },
    {
        "type": "node",
        "id": "6813546261",
        "lat": "21.0014879",
        "lon": "105.8261897",
        "tags": {
            "addr:full": "196a-b Trường Chinh, phường Khương Thượng, Hà Nội, quận Đống Đa, Việt Nam",
            "addr:housenumber": "196a-b",
            "addr:street": "Trường Chinh",
            "alt_name": "An Phước Hà Nội 2 - Trường Chinh",
            "clothes": "suits",
            "name": "Cửa Hàng Thời Trang An Phước",
            "name:en": "An Phuoc",
            "opening_hours": "7:30-21:30",
            "phone": "024 3232 3347",
            "shop": "clothes"
        }
    },
    {
        "type": "node",
        "id": "6813546266",
        "lat": "21.0112779",
        "lon": "105.8493213",
        "tags": {
            "addr:full": "191 Bà Triệu, Hà Nội, Hai Bà Trưng, Việt Nam",
            "addr:housenumber": "191",
            "addr:street": "Bà Triệu",
            "alt_name": "An Phước Hà Nội 8 - Vincom",
            "clothes": "suits",
            "name": "Cửa Hàng Thời Trang An Phước",
            "name:en": "An Phuoc",
            "opening_hours": "7:30-21:30",
            "phone": "024 2220 0248",
            "shop": "clothes"
        }
    },
    {
        "type": "node",
        "id": "6813546269",
        "lat": "21.0155020",
        "lon": "105.8055022",
        "tags": {
            "addr:full": "178 Trần Duy Hưng, Hà Nội, Cầu Giấy, Việt Nam",
            "addr:housenumber": "178",
            "addr:street": "Trần Duy Hưng",
            "alt_name": "An Phước Hà Nội 17 - Trần Duy Hưng",
            "clothes": "suits",
            "name": "Cửa Hàng Thời Trang An Phước",
            "name:en": "An Phuoc",
            "opening_hours": "9:00-21:30",
            "phone": "024 3783 5785",
            "shop": "clothes"
        }
    },
    {
        "type": "node",
        "id": "6813546284",
        "lat": "21.0120360",
        "lon": "105.8212431",
        "tags": {
            "addr:full": "132 Thái Hà, Hà Nội, Đống Đa, Việt Nam",
            "addr:housenumber": "132",
            "addr:street": "Thái Hà",
            "alt_name": "An Phước Hà Nội 16 - Thái Hà",
            "clothes": "suits",
            "name": "Cửa Hàng Thời Trang An Phước",
            "name:en": "An Phuoc",
            "opening_hours": "7:30-21:30",
            "phone": "024 3537 9860",
            "shop": "clothes"
        }
    },
    {
        "type": "node",
        "id": "6813546286",
        "lat": "21.0107740",
        "lon": "105.8111260",
        "tags": {
            "addr:full": "128 Láng Hạ, Hà Nội, Đống Đa, Việt Nam",
            "addr:housenumber": "128",
            "addr:street": "Láng Hạ",
            "alt_name": "An Phước Hà Nội 6 - Láng Hạ",
            "clothes": "suits",
            "name": "Cửa Hàng Thời Trang An Phước",
            "name:en": "An Phuoc",
            "opening_hours": "7:30-21:30",
            "phone": "024 3776 5847",
            "shop": "clothes"
        }
    },
    {
        "type": "node",
        "id": "6813726385",
        "lat": "21.0080156",
        "lon": "105.7665793",
        "tags": {
            "name": "Vm+ TDP 4 Phú Đô",
            "shop": "supermarket"
        }
    },
    {
        "type": "node",
        "id": "6850919386",
        "lat": "21.0095922",
        "lon": "105.8355703",
        "tags": {
            "addr:city": "Hà Nội",
            "addr:district": "Đống Đa",
            "addr:housenumber": "18-B7",
            "addr:postcode": "100000",
            "addr:street": "Phạm Ngọc Thạch",
            "addr:subdistrict": "Kim Liên",
            "brand": "Hồng Lam",
            "internet_access": "wlan",
            "name": "Ô mai Hồng Lam",
            "opening_hours": "Mo-Su 07:30-22:00",
            "operator": "Hồng Lam",
            "payment:cash": "yes",
            "payment:credit_cards": "yes",
            "payment:debit_cards": "yes",
            "payment:jcb": "yes",
            "payment:mastercard": "yes",
            "payment:visa": "yes",
            "phone": "+84 24 3577 1618",
            "shop": "department_store",
            "website": "https://honglam.vn"
        }
    },
    {
        "type": "node",
        "id": "6850919885",
        "lat": "21.0082236",
        "lon": "105.8514750",
        "tags": {
            "addr:city": "Hà Nội",
            "addr:district": "Hai Bà Trưng",
            "addr:housenumber": "17",
            "addr:postcode": "100000",
            "addr:province": "Hà Nội",
            "addr:street": "Bạch Mai",
            "addr:subdistrict": "Cầu Dền",
            "brand": "Hồng Lam",
            "internet_access": "wlan",
            "name": "Ô mai Hồng Lam Bạch Mai",
            "opening_hours": "Mo-Su 07:30-22:00",
            "operator": "Hồng Lam",
            "payment:cash": "yes",
            "payment:credit_cards": "yes",
            "payment:debit_cards": "yes",
            "payment:jcb": "yes",
            "payment:mastercard": "yes",
            "payment:visa": "yes",
            "phone": "+84 24 3215 1770",
            "shop": "confectionery",
            "website": "https://honglam.vn"
        }
    },
    {
        "type": "node",
        "id": "6884178185",
        "lat": "21.0114271",
        "lon": "105.8185491",
        "tags": {
            "name": "VM+ 109/217 thái hà",
            "shop": "supermarket"
        }
    },
    {
        "type": "node",
        "id": "6904546311",
        "lat": "21.0026244",
        "lon": "105.8214622",
        "tags": {
            "addr:city": "Hà Nội",
            "addr:district": "Thanh Xuân",
            "addr:housenumber": "367",
            "addr:province": "Việt Nam",
            "addr:street": "Đường Trường Chinh",
            "addr:subdistrict": "Khương Trung",
            "brand": "Hồng Lam",
            "name": "Ô mai Hồng Lam Trường Chinh",
            "opening_hours": "Mo-Su 07:30-22:00",
            "operator": "Hồng Lam",
            "payment:cash": "yes",
            "payment:credit_cards": "yes",
            "payment:debit_cards": "yes",
            "payment:jcb": "yes",
            "payment:mastercard": "yes",
            "payment:visa": "yes",
            "payment:visa_debit": "yes",
            "phone": "+84 24 3568 3101",
            "shop": "yes",
            "website": "https://honglam.vn"
        }
    },
    {
        "type": "node",
        "id": "6904546312",
        "lat": "21.0092019",
        "lon": "105.8196354",
        "tags": {
            "addr:district": "Đống Đa",
            "addr:housenumber": "102C",
            "addr:street": "Phố Thái Thịnh",
            "brand": "Hồng Lam",
            "name": "Ô mai Hồng Lam Thái Thịnh",
            "opening_hours": "Mo-Su 07:30-22:00",
            "operator": "Hồng Lam",
            "payment:cash": "yes",
            "payment:credit_cards": "yes",
            "payment:debit_cards": "yes",
            "payment:jcb": "yes",
            "payment:mastercard": "yes",
            "payment:visa": "yes",
            "phone": "+84 24 6275 0202",
            "shop": "yes",
            "website": "https://honglam.vn"
        }
    },
    {
        "type": "node",
        "id": "6919550087",
        "lat": "21.0041054",
        "lon": "105.7427357",
        "tags": {
            "addr:housenumber": "55",
            "addr:street": "Phố Cầu Cốc",
            "brand": "WinMart+",
            "brand:wikidata": "Q113236478",
            "name": "WinMart+",
            "shop": "convenience"
        }
    },
    {
        "type": "node",
        "id": "6927757885",
        "lat": "21.0056983",
        "lon": "105.8259058",
        "tags": {
            "name:en": "Chợ Thuỷ Lợi",
            "shop": "greengrocer"
        }
    },
    {
        "type": "node",
        "id": "6952977085",
        "lat": "21.0018429",
        "lon": "105.7582295",
        "tags": {
            "name": "VM+ 83 Quang Tiến",
            "shop": "supermarket"
        }
    },
    {
        "type": "node",
        "id": "6953682185",
        "lat": "21.0065072",
        "lon": "105.8322958",
        "tags": {
            "name": "Cửa Hàng Rau Củ Quả Kim Liên",
            "shop": "supermarket"
        }
    },
    {
        "type": "node",
        "id": "6979569185",
        "lat": "21.0033595",
        "lon": "105.8163946",
        "tags": {
            "name:en": "Huge supermarket (B2)",
            "name:ru": "Огромный супермаркет (этаж B2)",
            "shop": "supermarket"
        }
    },
    {
        "type": "node",
        "id": "6986697627",
        "lat": "21.0133359",
        "lon": "105.8159117",
        "tags": {
            "addr:city": "Hà Nội",
            "addr:district": "Đống Đa",
            "addr:housenumber": "186",
            "addr:province": "Hà Nội",
            "addr:street": "Phố Thái Thịnh",
            "addr:subdistrict": "Láng Hạ",
            "brand": "Circle K",
            "brand:wikidata": "Q3268010",
            "brand:wikipedia": "en:Circle K",
            "name": "Circle K",
            "shop": "convenience",
            "website": "https://www.circlek.com.vn/en/"
        }
    },
    {
        "type": "node",
        "id": "6986697628",
        "lat": "21.0145467",
        "lon": "105.8153735",
        "tags": {
            "addr:city": "Hà Nội",
            "addr:district": "Đống Đa",
            "addr:housenumber": "63",
            "addr:province": "Hà Nội",
            "addr:street": "Ngõ Thái Hà",
            "addr:subdistrict": "Láng Hạ",
            "name": "Spa HB",
            "shop": "massage",
            "website": "https://nhuongquyenspahb.com/"
        }
    },
    {
        "type": "node",
        "id": "7034967985",
        "lat": "21.0023272",
        "lon": "105.8334521",
        "tags": {
            "addr:city": "Hà Nội",
            "addr:district": "Đống Đa",
            "addr:housenumber": "59",
            "addr:postcode": "10000",
            "addr:street": "Ngõ 41 Đông Tác",
            "addr:subdistrict": "Kim Liên",
            "email": "dungprocoop@gmail.com",
            "internet_access": "wlan",
            "name": "The Uranus",
            "name:en": "The Uranus",
            "opening_hours": "Mo-Su 09:00-21:30",
            "operator": "Nghiêm Dũng",
            "phone": "0976394181",
            "shop": "clothes"
        }
    },
    {
        "type": "node",
        "id": "7056058602",
        "lat": "21.0026705",
        "lon": "105.8229429",
        "tags": {
            "addr:housenumber": "494",
            "addr:street": "Đường Trường Chinh",
            "name": "FPT Shop",
            "shop": "yes"
        }
    },
    {
        "type": "node",
        "id": "7056058603",
        "lat": "21.0028244",
        "lon": "105.8228662",
        "tags": {
            "addr:housenumber": "Số 10",
            "addr:street": "Ngõ 554 Trường Chinh",
            "shop": "dry_cleaning"
        }
    },
    {
        "type": "node",
        "id": "7134960186",
        "lat": "21.0070007",
        "lon": "105.8008880",
        "tags": {
            "branch": "Trung Hoà",
            "brand": "WinMart",
            "brand:wikidata": "Q60245505",
            "name": "WinMart",
            "shop": "supermarket"
        }
    },
    {
        "type": "node",
        "id": "7147892985",
        "lat": "21.0070072",
        "lon": "105.7960014",
        "tags": {
            "addr:city": "Hà Nội",
            "addr:district": "Cầu Giấy",
            "addr:housenumber": "119",
            "addr:province": "Hà Nội",
            "addr:street": "Đường Trần Duy Hưng",
            "addr:subdistrict": "Trung Hòa",
            "branch": "Trần Duy Hưng",
            "brand": "WinMart",
            "brand:wikidata": "Q60245505",
            "name": "WinMart",
            "shop": "supermarket"
        }
    },
    {
        "type": "node",
        "id": "7365666585",
        "lat": "21.0086205",
        "lon": "105.7944962",
        "tags": {
            "brand": "WinMart+",
            "brand:wikidata": "Q113236478",
            "brand:wikipedia": "vi:WinMart",
            "name": "WinMart+",
            "shop": "convenience"
        }
    },
    {
        "type": "node",
        "id": "7640046342",
        "lat": "20.9984694",
        "lon": "105.8052310",
        "tags": {
            "addr:city": "Hà Nội",
            "addr:housenumber": "1",
            "addr:province": "Hà Nội",
            "addr:street": "Phố Lê Văn Thiêm",
            "name": "LEDtech Workshop",
            "shop": "car_repair"
        }
    },
    {
        "type": "node",
        "id": "7843976764",
        "lat": "21.0016115",
        "lon": "105.8465426",
        "tags": {
            "addr:city": "Hà Nội",
            "addr:district": "Hai Bà Trưng",
            "addr:housenumber": "1",
            "addr:province": "Hà Nội",
            "addr:street": "Ngõ 37 Lê Thanh Nghị",
            "addr:subdistrict": "Phường Bách Khoa",
            "brand": "Circle K",
            "brand:wikidata": "Q3268010",
            "brand:wikipedia": "en:Circle K",
            "internet_access": "wlan",
            "name": "Circle K",
            "opening_hours": "24/7",
            "shop": "convenience",
            "wheelchair": "no"
        }
    },
    {
        "type": "node",
        "id": "7843976807",
        "lat": "21.0027113",
        "lon": "105.8448554",
        "tags": {
            "addr:city": "Hà Nội",
            "addr:district": "Hai Bà Trưng",
            "addr:housenumber": "113",
            "addr:province": "Hà Nội",
            "addr:street": "Phố Trần Đại Nghĩa",
            "addr:subdistrict": "Phường Bách Khoa",
            "brand": "Circle K",
            "brand:wikidata": "Q3268010",
            "brand:wikipedia": "en:Circle K",
            "name": "Circle K",
            "shop": "convenience"
        }
    },
    {
        "type": "node",
        "id": "7845491601",
        "lat": "21.0020014",
        "lon": "105.8229532",
        "tags": {
            "brand": "Toyota",
            "brand:wikidata": "Q53268",
            "level": "0;1",
            "name": "Toyota Thanh Xuân",
            "shop": "car"
        }
    },
    {
        "type": "node",
        "id": "7921727184",
        "lat": "21.0105485",
        "lon": "105.8146871",
        "tags": {
            "addr:city": "Hà Nội",
            "addr:district": "Đống Đa",
            "addr:housenumber": "Số nhà 20",
            "addr:postcode": "+84",
            "addr:province": "Hà Nội",
            "addr:street": "Ngõ 120 Yên Lãng",
            "addr:subdistrict": "Thịnh Quang",
            "name": "Xưởng In Thun Việt - ThunVietJSC",
            "opening_hours": "24/7",
            "operator": "Công Ty Cổ Phần Thương Mại Và Sản Xuất Thun Việt",
            "shop": "printer_ink"
        }
    },
    {
        "type": "node",
        "id": "7994215087",
        "lat": "21.0095079",
        "lon": "105.8378024",
        "tags": {
            "addr:city": "Hà Nội",
            "addr:district": "Đống Đa",
            "addr:housenumber": "7",
            "addr:province": "Hà Nội",
            "addr:street": "Phố Xã Đàn",
            "addr:subdistrict": "Phương Liên",
            "email": "lamnh.ebs@gmail.com",
            "level": "0",
            "name": "EBD Book",
            "phone": "+84 24 6027 8570",
            "shop": "books",
            "website": "https://ebdbook.vn/"
        }
    },
    {
        "type": "node",
        "id": "8120992988",
        "lat": "21.0064161",
        "lon": "105.8318865",
        "tags": {
            "brand": "Uniqlo",
            "brand:wikidata": "Q26070",
            "brand:wikipedia": "en:Uniqlo",
            "level": "0;1",
            "name": "Uniqlo",
            "shop": "clothes"
        }
    },
    {
        "type": "node",
        "id": "8146559902",
        "lat": "21.0107422",
        "lon": "105.8141860",
        "tags": {
            "addr:city": "Hà Nội",
            "addr:district": "Đống Đa",
            "addr:housenumber": "132",
            "addr:postcode": "+84",
            "addr:province": "Hà Nội",
            "addr:street": "Ngõ 120 Yên Lãng",
            "addr:subdistrict": "Láng Hạ",
            "clothes": "Street_Style",
            "name": "Wakanda Store",
            "opening_hours": "Mo-Su 08:00-22:00",
            "shop": "clothes"
        }
    },
    {
        "type": "node",
        "id": "8211720692",
        "lat": "21.0019191",
        "lon": "105.8424356",
        "tags": {
            "addr:city": "Hà Nội",
            "addr:housenumber": "242",
            "addr:province": "Hà Nội",
            "addr:street": "Phố Lê Thanh Nghị",
            "brand": "WinMart+",
            "brand:wikidata": "Q113236478",
            "brand:wikipedia": "vi:VinMart",
            "name": "WinMart+",
            "shop": "convenience",
            "wheelchair": "no"
        }
    },
    {
        "type": "node",
        "id": "8213622643",
        "lat": "21.0011292",
        "lon": "105.8426558",
        "tags": {
            "addr:housenumber": "72",
            "addr:street": "Ngõ 205 Giải Phóng",
            "name": "Tạp hoá",
            "shop": "convenience"
        }
    },
    {
        "type": "node",
        "id": "8213664340",
        "lat": "21.0007921",
        "lon": "105.8421740",
        "tags": {
            "addr:housenumber": "42",
            "addr:street": "Ngõ 205 Giải Phóng",
            "name": "Tạp hoá",
            "shop": "convenience"
        }
    },
    {
        "type": "node",
        "id": "8218053070",
        "lat": "20.9996047",
        "lon": "105.8416710",
        "tags": {
            "addr:housenumber": "6-8",
            "addr:street": "Phố Vọng",
            "brand": "WinMart+",
            "brand:wikidata": "Q113236478",
            "brand:wikipedia": "vi:VinMart",
            "name": "WinMart+",
            "shop": "convenience",
            "wheelchair": "no"
        }
    },
    {
        "type": "node",
        "id": "8516000218",
        "lat": "21.0031584",
        "lon": "105.8162254",
        "tags": {
            "addr:housenumber": "R4",
            "addr:postcode": "100000",
            "addr:street": "Royal City Complex",
            "email": "info@qbrows.com",
            "internet_access": "wlan",
            "name": "Q Brows Microblading",
            "name:en": "Q Brows Microblading - Permanent Makeup",
            "name:vi": "Q Brows Microblading - Permanent Makeup",
            "opening_hours": "Mo-Sa 09:00-18:00",
            "phone": "+84974718078",
            "shop": "beauty",
            "website": "http://microblading.vn"
        }
    },
    {
        "type": "node",
        "id": "8915286099",
        "lat": "21.0123068",
        "lon": "105.8110781",
        "tags": {
            "addr:city": "Hà Nội",
            "addr:district": "Đống Đa",
            "addr:housenumber": "Tầng 5, Tháp A",
            "addr:postcode": "100000",
            "addr:province": "Hà Nội",
            "addr:street": "88 Láng Hạ",
            "addr:subdistrict": "Láng Hạ",
            "name": "POS365 - Phần mềm quản lý bán hàng",
            "opening_hours": "Mo-Sa 08:00-17:30",
            "operator": "365 software JSC",
            "payment:cash": "yes",
            "payment:mastercard": "yes",
            "payment:visa": "yes",
            "shop": "computer",
            "website": "https://www.pos365.vn"
        }
    },
    {
        "type": "node",
        "id": "8929112749",
        "lat": "20.9988468",
        "lon": "105.8203626",
        "tags": {
            "addr:city": "Hà Nội",
            "addr:district": "Thanh Xuân",
            "addr:housenumber": "292",
            "addr:province": "Hà Nội",
            "addr:street": "Phố Hoàng Văn Thái",
            "addr:subdistrict": "Khương Trung",
            "brand": "Circle K",
            "brand:wikidata": "Q3268010",
            "brand:wikipedia": "en:Circle K",
            "name": "Circle K",
            "opening_hours": "24/7",
            "operator": "Red Circle Co., Ltd",
            "payment:QR_Pay": "yes",
            "payment:cash": "yes",
            "payment:credit_cards": "yes",
            "payment:debit_cards": "yes",
            "phone": "+84 24 3200 7058",
            "shop": "convenience",
            "website": "https://www.circlek.com.vn"
        }
    },
    {
        "type": "node",
        "id": "8937618770",
        "lat": "20.9995824",
        "lon": "105.8277831",
        "tags": {
            "addr:city": "Hà Nội",
            "addr:district": "Thanh Xuân",
            "addr:housenumber": "52",
            "addr:postcode": "100000",
            "addr:province": "Hà Nội",
            "addr:street": "Phố Lê Trọng Tấn",
            "addr:subdistrict": "Khương Mai",
            "name": "Pharmacity",
            "opening_hours": "Mo-Su 06:00-23:30",
            "operator": "Pharmacity",
            "payment:cash": "yes",
            "payment:credit_cards": "yes",
            "payment:debit_cards": "yes",
            "phone": "+84 1800 6821",
            "shop": "chemist",
            "website": "https://www.pharmacity.vn/"
        }
    },
    {
        "type": "node",
        "id": "8937618771",
        "lat": "20.9997582",
        "lon": "105.8278619",
        "tags": {
            "addr:city": "Hà Nội",
            "addr:district": "Thanh Xuân",
            "addr:housenumber": "46",
            "addr:province": "Hà Nội",
            "addr:street": "Phố Lê Trọng Tấn",
            "addr:subdistrict": "Khương Mai",
            "brand": "Circle K",
            "brand:wikidata": "Q3268010",
            "brand:wikipedia": "en:Circle K",
            "name": "Circle K",
            "opening_hours": "24/7",
            "operator": "Red Circle Co., Ltd",
            "payment:QR_Pay": "yes",
            "payment:cash": "yes",
            "payment:credit_cards": "yes",
            "payment:debit_cards": "yes",
            "phone": "+84 24 3200 6067",
            "shop": "convenience",
            "website": "https://www.circlek.com.vn"
        }
    },
    {
        "type": "node",
        "id": "8940691424",
        "lat": "21.0133515",
        "lon": "105.8006354",
        "tags": {
            "name": "Việt Nhật Motor",
            "shop": "motorcycle_repair"
        }
    },
    {
        "type": "node",
        "id": "8957577167",
        "lat": "20.9988337",
        "lon": "105.8202417",
        "tags": {
            "addr:city": "Hà Nội",
            "addr:district": "Thanh Xuân",
            "addr:housenumber": "94",
            "addr:province": "Hà Nội",
            "addr:street": "Phố Tô Vĩnh Diện",
            "addr:subdistrict": "Khương Trung",
            "name": "Pharmacity",
            "opening_hours": "Mo-Su 06:00-23:30",
            "operator": "Pharmacity",
            "payment:QR_Pay": "yes",
            "payment:cash": "yes",
            "payment:credit_cards": "yes",
            "payment:debit_cards": "yes",
            "phone": "+84 1800 6821",
            "shop": "chemist",
            "website": "https://www.pharmacity.vn/"
        }
    },